[{"station":"Malleshwaram","lat":13.00552,"lon":77.55984,"officers_seen":133,"active_days":151,"n_zones":22,"P1":12,"P2":6,"blind_spots":18,"top_zone_id":"2890_17234","top_zone_priority":90.3,"current_peak_hour":8,"evening_tickets":16,"recommended_retiming":"Shift a patrol from the 08:00 cluster to an evening sweep (17:00\u201321:00)"},{"station":"HAL Old Airport","lat":12.94319,"lon":77.6966,"officers_seen":105,"active_days":150,"n_zones":55,"P1":10,"P2":14,"blind_spots":23,"top_zone_id":"2877_17266","top_zone_priority":88.4,"current_peak_hour":8,"evening_tickets":12,"recommended_retiming":"Shift a patrol from the 08:00 cluster to an evening sweep (17:00\u201321:00)"},{"station":"Magadi Road","lat":12.97496,"lon":77.55372,"officers_seen":148,"active_days":151,"n_zones":23,"P1":9,"P2":8,"blind_spots":17,"top_zone_id":"2884_17233","top_zone_priority":89.8,"current_peak_hour":11,"evening_tickets":4,"recommended_retiming":"Shift a patrol from the 11:00 cluster to an evening sweep (17:00\u201321:00)"},{"station":"Shivajinagar","lat":12.98214,"lon":77.60697,"officers_seen":94,"active_days":151,"n_zones":10,"P1":9,"P2":1,"blind_spots":10,"top_zone_id":"2884_17246","top_zone_priority":90.1,"current_peak_hour":10,"evening_tickets":53,"recommended_retiming":"Shift a patrol from the 10:00 cluster to an evening sweep (17:00\u201321:00)"},{"station":"Jeevanbheemanagar","lat":12.96834,"lon":77.64711,"officers_seen":104,"active_days":150,"n_zones":34,"P1":8,"P2":12,"blind_spots":19,"top_zone_id":"2879_17254","top_zone_priority":83.9,"current_peak_hour":7,"evening_tickets":11,"recommended_retiming":"Shift a patrol from the 07:00 cluster to an evening sweep (17:00\u201321:00)"},{"station":"Rajajinagar","lat":12.99863,"lon":77.54855,"officers_seen":126,"active_days":151,"n_zones":37,"P1":7,"P2":15,"blind_spots":22,"top_zone_id":"2887_17233","top_zone_priority":87.8,"current_peak_hour":3,"evening_tickets":1,"recommended_retiming":"Shift a patrol from the 03:00 cluster to an evening sweep (17:00\u201321:00)"},{"station":"Upparpet","lat":12.97669,"lon":77.5774,"officers_seen":115,"active_days":151,"n_zones":8,"P1":7,"P2":1,"blind_spots":8,"top_zone_id":"2883_17239","top_zone_priority":87.8,"current_peak_hour":9,"evening_tickets":7,"recommended_retiming":"Shift a patrol from the 09:00 cluster to an evening sweep (17:00\u201321:00)"},{"station":"Mahadevapura","lat":12.99341,"lon":77.69578,"officers_seen":84,"active_days":147,"n_zones":57,"P1":6,"P2":10,"blind_spots":16,"top_zone_id":"2888_17259","top_zone_priority":92.1,"current_peak_hour":11,"evening_tickets":8,"recommended_retiming":"Shift a patrol from the 11:00 cluster to an evening sweep (17:00\u201321:00)"},{"station":"Wilson Garden","lat":12.94657,"lon":77.58886,"officers_seen":109,"active_days":151,"n_zones":21,"P1":6,"P2":9,"blind_spots":13,"top_zone_id":"2875_17240","top_zone_priority":87.6,"current_peak_hour":8,"evening_tickets":20,"recommended_retiming":"Shift a patrol from the 08:00 cluster to an evening sweep (17:00\u201321:00)"},{"station":"Vijayanagara","lat":12.97829,"lon":77.54284,"officers_seen":89,"active_days":151,"n_zones":29,"P1":5,"P2":9,"blind_spots":14,"top_zone_id":"2886_17230","top_zone_priority":89.0,"current_peak_hour":10,"evening_tickets":10,"recommended_retiming":"Shift a patrol from the 10:00 cluster to an evening sweep (17:00\u201321:00)"},{"station":"Chamarajpet","lat":12.9701,"lon":77.57093,"officers_seen":70,"active_days":146,"n_zones":13,"P1":5,"P2":6,"blind_spots":11,"top_zone_id":"2883_17237","top_zone_priority":90.2,"current_peak_hour":7,"evening_tickets":0,"recommended_retiming":"Shift a patrol from the 07:00 cluster to an evening sweep (17:00\u201321:00)"},{"station":"Hulimavu","lat":12.88229,"lon":77.62562,"officers_seen":49,"active_days":141,"n_zones":33,"P1":5,"P2":5,"blind_spots":10,"top_zone_id":"2863_17253","top_zone_priority":91.2,"current_peak_hour":2,"evening_tickets":0,"recommended_retiming":"Shift a patrol from the 02:00 cluster to an evening sweep (17:00\u201321:00)"},{"station":"Bellandur","lat":12.91808,"lon":77.67928,"officers_seen":99,"active_days":148,"n_zones":43,"P1":4,"P2":14,"blind_spots":18,"top_zone_id":"2870_17260","top_zone_priority":85.0,"current_peak_hour":4,"evening_tickets":0,"recommended_retiming":"Shift a patrol from the 04:00 cluster to an evening sweep (17:00\u201321:00)"},{"station":"Adugodi","lat":12.93499,"lon":77.62078,"officers_seen":99,"active_days":148,"n_zones":30,"P1":4,"P2":12,"blind_spots":13,"top_zone_id":"2874_17247","top_zone_priority":90.2,"current_peak_hour":11,"evening_tickets":89,"recommended_retiming":"Shift a patrol from the 11:00 cluster to an evening sweep (17:00\u201321:00)"},{"station":"Kodigehalli","lat":13.06,"lon":77.58616,"officers_seen":85,"active_days":151,"n_zones":45,"P1":4,"P2":12,"blind_spots":16,"top_zone_id":"2904_17241","top_zone_priority":90.4,"current_peak_hour":11,"evening_tickets":1,"recommended_retiming":"Shift a patrol from the 11:00 cluster to an evening sweep (17:00\u201321:00)"},{"station":"City Market","lat":12.96453,"lon":77.57713,"officers_seen":146,"active_days":151,"n_zones":6,"P1":4,"P2":2,"blind_spots":6,"top_zone_id":"2880_17239","top_zone_priority":91.9,"current_peak_hour":9,"evening_tickets":25,"recommended_retiming":"Shift a patrol from the 09:00 cluster to an evening sweep (17:00\u201321:00)"},{"station":"HSR Layout","lat":12.90931,"lon":77.63699,"officers_seen":95,"active_days":149,"n_zones":33,"P1":3,"P2":14,"blind_spots":17,"top_zone_id":"2868_17250","top_zone_priority":83.8,"current_peak_hour":11,"evening_tickets":6,"recommended_retiming":"Shift a patrol from the 11:00 cluster to an evening sweep (17:00\u201321:00)"},{"station":"Pulikeshinagar(F.Town)","lat":12.99575,"lon":77.61366,"officers_seen":73,"active_days":145,"n_zones":21,"P1":3,"P2":11,"blind_spots":14,"top_zone_id":"2888_17247","top_zone_priority":84.7,"current_peak_hour":3,"evening_tickets":3,"recommended_retiming":"Shift a patrol from the 03:00 cluster to an evening sweep (17:00\u201321:00)"},{"station":"Byatarayanapura","lat":12.95282,"lon":77.53145,"officers_seen":72,"active_days":149,"n_zones":25,"P1":3,"P2":9,"blind_spots":12,"top_zone_id":"2879_17226","top_zone_priority":86.9,"current_peak_hour":12,"evening_tickets":8,"recommended_retiming":"Shift a patrol from the 12:00 cluster to an evening sweep (17:00\u201321:00)"},{"station":"Yeshwanthpura","lat":13.02704,"lon":77.54649,"officers_seen":85,"active_days":150,"n_zones":27,"P1":3,"P2":9,"blind_spots":12,"top_zone_id":"2895_17230","top_zone_priority":84.4,"current_peak_hour":3,"evening_tickets":3,"recommended_retiming":"Shift a patrol from the 03:00 cluster to an evening sweep (17:00\u201321:00)"},{"station":"Halasur","lat":12.97284,"lon":77.62127,"officers_seen":90,"active_days":151,"n_zones":19,"P1":3,"P2":8,"blind_spots":11,"top_zone_id":"2882_17248","top_zone_priority":85.0,"current_peak_hour":4,"evening_tickets":3,"recommended_retiming":"Shift a patrol from the 04:00 cluster to an evening sweep (17:00\u201321:00)"},{"station":"Basavanagudi","lat":12.94317,"lon":77.57111,"officers_seen":51,"active_days":150,"n_zones":21,"P1":3,"P2":6,"blind_spots":9,"top_zone_id":"2876_17238","top_zone_priority":83.4,"current_peak_hour":4,"evening_tickets":0,"recommended_retiming":"Shift a patrol from the 04:00 cluster to an evening sweep (17:00\u201321:00)"},{"station":"Halasuru Gate","lat":12.96561,"lon":77.58398,"officers_seen":140,"active_days":148,"n_zones":9,"P1":3,"P2":5,"blind_spots":8,"top_zone_id":"2880_17240","top_zone_priority":89.5,"current_peak_hour":10,"evening_tickets":4,"recommended_retiming":"Shift a patrol from the 10:00 cluster to an evening sweep (17:00\u201321:00)"},{"station":"K.R. Pura","lat":13.01051,"lon":77.6977,"officers_seen":104,"active_days":151,"n_zones":48,"P1":2,"P2":9,"blind_spots":10,"top_zone_id":"2890_17265","top_zone_priority":92.5,"current_peak_hour":0,"evening_tickets":27,"recommended_retiming":"Shift a patrol from the 00:00 cluster to an evening sweep (17:00\u201321:00)"},{"station":"Cubbon Park","lat":12.97532,"lon":77.59582,"officers_seen":225,"active_days":148,"n_zones":11,"P1":2,"P2":8,"blind_spots":9,"top_zone_id":"2882_17243","top_zone_priority":86.2,"current_peak_hour":11,"evening_tickets":6,"recommended_retiming":"Shift a patrol from the 11:00 cluster to an evening sweep (17:00\u201321:00)"},{"station":"Jayanagara","lat":12.926,"lon":77.58348,"officers_seen":94,"active_days":149,"n_zones":22,"P1":2,"P2":8,"blind_spots":10,"top_zone_id":"2873_17240","top_zone_priority":89.9,"current_peak_hour":8,"evening_tickets":1,"recommended_retiming":"Shift a patrol from the 08:00 cluster to an evening sweep (17:00\u201321:00)"},{"station":"Electronic City","lat":12.84948,"lon":77.65514,"officers_seen":64,"active_days":151,"n_zones":62,"P1":2,"P2":7,"blind_spots":8,"top_zone_id":"2853_17254","top_zone_priority":87.0,"current_peak_hour":12,"evening_tickets":11,"recommended_retiming":"Shift a patrol from the 12:00 cluster to an evening sweep (17:00\u201321:00)"},{"station":"J.P. Nagar","lat":12.90396,"lon":77.58867,"officers_seen":89,"active_days":137,"n_zones":31,"P1":2,"P2":7,"blind_spots":8,"top_zone_id":"2869_17241","top_zone_priority":82.1,"current_peak_hour":3,"evening_tickets":4,"recommended_retiming":"Shift a patrol from the 03:00 cluster to an evening sweep (17:00\u201321:00)"},{"station":"Sheshadripuram","lat":12.99101,"lon":77.57287,"officers_seen":116,"active_days":147,"n_zones":15,"P1":2,"P2":6,"blind_spots":8,"top_zone_id":"2886_17238","top_zone_priority":90.5,"current_peak_hour":10,"evening_tickets":0,"recommended_retiming":"Shift a patrol from the 10:00 cluster to an evening sweep (17:00\u201321:00)"},{"station":"V.V.Puram (C.Pet)","lat":12.95868,"lon":77.57479,"officers_seen":81,"active_days":135,"n_zones":8,"P1":2,"P2":6,"blind_spots":8,"top_zone_id":"2879_17238","top_zone_priority":86.7,"current_peak_hour":3,"evening_tickets":1,"recommended_retiming":"Shift a patrol from the 03:00 cluster to an evening sweep (17:00\u201321:00)"},{"station":"Chikkajala","lat":13.18314,"lon":77.67165,"officers_seen":45,"active_days":149,"n_zones":22,"P1":2,"P2":4,"blind_spots":6,"top_zone_id":"2929_17262","top_zone_priority":90.2,"current_peak_hour":4,"evening_tickets":12,"recommended_retiming":"Shift a patrol from the 04:00 cluster to an evening sweep (17:00\u201321:00)"},{"station":"Hebbala","lat":13.03868,"lon":77.58997,"officers_seen":66,"active_days":143,"n_zones":20,"P1":2,"P2":2,"blind_spots":4,"top_zone_id":"2896_17242","top_zone_priority":87.8,"current_peak_hour":4,"evening_tickets":8,"recommended_retiming":"Shift a patrol from the 04:00 cluster to an evening sweep (17:00\u201321:00)"},{"station":"Mico Layout","lat":12.92094,"lon":77.60583,"officers_seen":52,"active_days":141,"n_zones":30,"P1":1,"P2":12,"blind_spots":13,"top_zone_id":"2868_17244","top_zone_priority":89.7,"current_peak_hour":11,"evening_tickets":0,"recommended_retiming":"Shift a patrol from the 11:00 cluster to an evening sweep (17:00\u201321:00)"},{"station":"Whitefield","lat":12.95744,"lon":77.73097,"officers_seen":80,"active_days":143,"n_zones":52,"P1":1,"P2":12,"blind_spots":12,"top_zone_id":"2878_17270","top_zone_priority":89.8,"current_peak_hour":10,"evening_tickets":18,"recommended_retiming":"Shift a patrol from the 10:00 cluster to an evening sweep (17:00\u201321:00)"},{"station":"High ground","lat":12.99018,"lon":77.58739,"officers_seen":134,"active_days":145,"n_zones":11,"P1":1,"P2":7,"blind_spots":8,"top_zone_id":"2885_17239","top_zone_priority":80.2,"current_peak_hour":4,"evening_tickets":0,"recommended_retiming":"Shift a patrol from the 04:00 cluster to an evening sweep (17:00\u201321:00)"},{"station":"Kamakshipalya","lat":12.98992,"lon":77.51093,"officers_seen":73,"active_days":133,"n_zones":33,"P1":1,"P2":7,"blind_spots":8,"top_zone_id":"2886_17222","top_zone_priority":82.9,"current_peak_hour":11,"evening_tickets":0,"recommended_retiming":"Shift a patrol from the 11:00 cluster to an evening sweep (17:00\u201321:00)"},{"station":"Sadashivanagar","lat":13.02041,"lon":77.57566,"officers_seen":85,"active_days":128,"n_zones":17,"P1":1,"P2":6,"blind_spots":7,"top_zone_id":"2895_17238","top_zone_priority":83.3,"current_peak_hour":11,"evening_tickets":1,"recommended_retiming":"Shift a patrol from the 11:00 cluster to an evening sweep (17:00\u201321:00)"},{"station":"Yelahanka","lat":13.10071,"lon":77.59614,"officers_seen":51,"active_days":144,"n_zones":55,"P1":1,"P2":5,"blind_spots":6,"top_zone_id":"2910_17244","top_zone_priority":90.0,"current_peak_hour":2,"evening_tickets":0,"recommended_retiming":"Shift a patrol from the 02:00 cluster to an evening sweep (17:00\u201321:00)"},{"station":"Banashankari","lat":12.92667,"lon":77.55421,"officers_seen":42,"active_days":119,"n_zones":36,"P1":1,"P2":4,"blind_spots":5,"top_zone_id":"2870_17238","top_zone_priority":82.1,"current_peak_hour":11,"evening_tickets":0,"recommended_retiming":"Shift a patrol from the 11:00 cluster to an evening sweep (17:00\u201321:00)"},{"station":"Banaswadi","lat":12.99902,"lon":77.66246,"officers_seen":121,"active_days":147,"n_zones":56,"P1":1,"P2":4,"blind_spots":5,"top_zone_id":"2887_17258","top_zone_priority":91.5,"current_peak_hour":7,"evening_tickets":2,"recommended_retiming":"Shift a patrol from the 07:00 cluster to an evening sweep (17:00\u201321:00)"},{"station":"Madiwala","lat":12.91794,"lon":77.6225,"officers_seen":73,"active_days":141,"n_zones":18,"P1":1,"P2":4,"blind_spots":4,"top_zone_id":"2871_17249","top_zone_priority":86.1,"current_peak_hour":1,"evening_tickets":7,"recommended_retiming":"Shift a patrol from the 01:00 cluster to an evening sweep (17:00\u201321:00)"},{"station":"Ashok Nagar","lat":12.96521,"lon":77.6039,"officers_seen":83,"active_days":148,"n_zones":26,"P1":0,"P2":9,"blind_spots":8,"top_zone_id":"2880_17244","top_zone_priority":78.8,"current_peak_hour":4,"evening_tickets":19,"recommended_retiming":"Shift a patrol from the 04:00 cluster to an evening sweep (17:00\u201321:00)"},{"station":"K.G. Halli","lat":13.02883,"lon":77.62238,"officers_seen":42,"active_days":96,"n_zones":23,"P1":0,"P2":6,"blind_spots":6,"top_zone_id":"2896_17249","top_zone_priority":76.1,"current_peak_hour":3,"evening_tickets":0,"recommended_retiming":"Shift a patrol from the 03:00 cluster to an evening sweep (17:00\u201321:00)"},{"station":"K.S. Layout","lat":12.90573,"lon":77.55583,"officers_seen":49,"active_days":130,"n_zones":28,"P1":0,"P2":6,"blind_spots":6,"top_zone_id":"2869_17233","top_zone_priority":76.0,"current_peak_hour":12,"evening_tickets":0,"recommended_retiming":"Shift a patrol from the 12:00 cluster to an evening sweep (17:00\u201321:00)"},{"station":"R.T. Nagar","lat":13.0177,"lon":77.59112,"officers_seen":79,"active_days":139,"n_zones":24,"P1":0,"P2":6,"blind_spots":6,"top_zone_id":"2890_17242","top_zone_priority":79.8,"current_peak_hour":4,"evening_tickets":0,"recommended_retiming":"Shift a patrol from the 04:00 cluster to an evening sweep (17:00\u201321:00)"},{"station":"Thalagattapura","lat":12.87879,"lon":77.55353,"officers_seen":58,"active_days":130,"n_zones":34,"P1":0,"P2":6,"blind_spots":4,"top_zone_id":"2864_17236","top_zone_priority":78.9,"current_peak_hour":11,"evening_tickets":2,"recommended_retiming":"Shift a patrol from the 11:00 cluster to an evening sweep (17:00\u201321:00)"},{"station":"Chikkabanavara","lat":13.05148,"lon":77.5039,"officers_seen":64,"active_days":126,"n_zones":24,"P1":0,"P2":5,"blind_spots":5,"top_zone_id":"2901_17223","top_zone_priority":72.8,"current_peak_hour":11,"evening_tickets":0,"recommended_retiming":"Shift a patrol from the 11:00 cluster to an evening sweep (17:00\u201321:00)"},{"station":"Jalahalli","lat":13.05282,"lon":77.54032,"officers_seen":35,"active_days":131,"n_zones":26,"P1":0,"P2":5,"blind_spots":5,"top_zone_id":"2900_17233","top_zone_priority":79.3,"current_peak_hour":11,"evening_tickets":0,"recommended_retiming":"Shift a patrol from the 11:00 cluster to an evening sweep (17:00\u201321:00)"},{"station":"Peenya","lat":13.03659,"lon":77.51237,"officers_seen":48,"active_days":118,"n_zones":25,"P1":0,"P2":5,"blind_spots":5,"top_zone_id":"2898_17223","top_zone_priority":79.2,"current_peak_hour":11,"evening_tickets":0,"recommended_retiming":"Shift a patrol from the 11:00 cluster to an evening sweep (17:00\u201321:00)"},{"station":"Devanahalli Airport","lat":13.19969,"lon":77.68777,"officers_seen":34,"active_days":110,"n_zones":33,"P1":0,"P2":4,"blind_spots":4,"top_zone_id":"2931_17262","top_zone_priority":78.8,"current_peak_hour":4,"evening_tickets":0,"recommended_retiming":"Shift a patrol from the 04:00 cluster to an evening sweep (17:00\u201321:00)"},{"station":"Kengeri","lat":12.92095,"lon":77.49804,"officers_seen":41,"active_days":107,"n_zones":40,"P1":0,"P2":4,"blind_spots":4,"top_zone_id":"2873_17225","top_zone_priority":75.9,"current_peak_hour":11,"evening_tickets":0,"recommended_retiming":"Shift a patrol from the 11:00 cluster to an evening sweep (17:00\u201321:00)"},{"station":"Jnanabharathi","lat":12.96224,"lon":77.50816,"officers_seen":51,"active_days":139,"n_zones":34,"P1":0,"P2":3,"blind_spots":3,"top_zone_id":"2882_17223","top_zone_priority":77.1,"current_peak_hour":11,"evening_tickets":0,"recommended_retiming":"Shift a patrol from the 11:00 cluster to an evening sweep (17:00\u201321:00)"},{"station":"No Police Station","lat":13.0197,"lon":77.52709,"officers_seen":45,"active_days":82,"n_zones":22,"P1":0,"P2":2,"blind_spots":2,"top_zone_id":"2901_17216","top_zone_priority":65.2,"current_peak_hour":12,"evening_tickets":0,"recommended_retiming":"Shift a patrol from the 12:00 cluster to an evening sweep (17:00\u201321:00)"},{"station":"Hennuru","lat":13.05864,"lon":77.63767,"officers_seen":52,"active_days":118,"n_zones":48,"P1":0,"P2":1,"blind_spots":1,"top_zone_id":"2904_17251","top_zone_priority":62.9,"current_peak_hour":13,"evening_tickets":1,"recommended_retiming":"Shift a patrol from the 13:00 cluster to an evening sweep (17:00\u201321:00)"}]